[
  { "id": "001", "name": "Xhamia Bukoviq", "city": "Rožaje", "village": "Bukoviq", "address": "Fshati, Bukoviq Rožaje", "lat": 42.949828, "lng": 20.203537 },
  { "id": "002", "name": "Xhamia Cosovic", "city": "Rožaje", "village": "Cosovic", "address": "Fshati, Cosovic Rožaje", "lat": 42.903552, "lng": 20.106479 },
  { "id": "003", "name": "Xhamia Crnokrpe", "city": "Rožaje", "village": "Crnokrpe", "address": "Fshati, Crnokrpe Rožaje", "lat": 42.910585, "lng": 20.231598 },
  { "id": "004", "name": "Xhamia Grahov", "city": "Rožaje", "village": "Grahov", "address": "Fshati, Grahov Rožaje", "lat": 42.866771, "lng": 20.182729 },
  { "id": "005", "name": "Xhamia Honsice", "city": "Rožaje", "village": "Honsice", "address": "Fshati, Honsice Rožaje", "lat": 42.875289, "lng": 20.104816 },
  { "id": "006", "name": "Xhamia Kalaç", "city": "Rožaje", "village": "Kalaç", "address": "Fshati, Kalaç Rožaje", "lat": 42.857988, "lng": 20.092524 },
  { "id": "007", "name": "Xhamia Klanac", "city": "Rožaje", "village": "Klanac", "address": "Fshati, Klanac Rožaje", "lat": 42.875281, "lng": 20.143319 },
  { "id": "008", "name": "Xhamia Koljeno", "city": "Rožaje", "village": "Koljeno", "address": "Fshati, Koljeno Rožaje", "lat": 42.835958, "lng": 20.110731 },
  { "id": "009", "name": "Xhamia Lovnice", "city": "Rožaje", "village": "Lovnice", "address": "Fshati, Lovnice Rožaje", "lat": 42.869828, "lng": 20.137911 },
  { "id": "010", "name": "Xhamia Lucic", "city": "Rožaje", "village": "Lucic", "address": "Fshati, Lucic Rožaje", "lat": 42.895739, "lng": 20.168458 },
  { "id": "011", "name": "Xhamia Radetin", "city": "Rožaje", "village": "Radetin", "address": "Fshati, Radetin Rožaje", "lat": 42.896714, "lng": 20.252638 },
  { "id": "012", "name": "Xhamia Ramovica", "city": "Rožaje", "village": "Ramovica", "address": "Fshati, Ramovica Rožaje", "lat": 42.865708, "lng": 20.131781 },
  { "id": "013", "name": "Xhamia Senoshnice", "city": "Rožaje", "village": "Senoshnice", "address": "Fshati, Senoshnice Rožaje", "lat": 42.850510, "lng": 20.124968 },
  { "id": "014", "name": "Xhamia e Shtodrit", "city": "Ulcinj", "village": "Shtodrit", "address": "Fshati, Shtodrit Ulcinj", "lat": 41.984763, "lng": 19.374420 },
  { "id": "015", "name": "Xhamia Subabe", "city": "Rožaje", "village": "Subabe", "address": "Fshati, Subabe Rožaje", "lat": 42.849889, "lng": 20.139433 },
  { "id": "016", "name": "Xhamia Vuca", "city": "Rožaje", "village": "Vuca", "address": "Fshati, Vuca Rožaje", "lat": 42.931538, "lng": 20.274415 },
  { "id": "017", "name": "Xhamia Ballotiq", "city": "Rožaje", "village": "Ballotiq", "address": "Fshati, Ballotiq Rožaje", "lat": 42.832759, "lng": 20.222198 },
  { "id": "018", "name": "Xhamia Baq", "city": "Rožaje", "village": "Baq", "address": "Fshati, Baq Rožaje", "lat": 42.887918, "lng": 20.297804 },
  { "id": "019", "name": "Xhamia Berane", "city": "Berane", "village": "Berane", "address": "Haremska, Berane", "lat": 42.850433, "lng": 19.877856 },
  { "id": "020", "name": "Xhamia Besnik", "city": "Rožaje", "village": "Besnik", "address": "Fshati, Besnik Rožaje", "lat": 42.876107, "lng": 20.253172 },
  { "id": "021", "name": "Xhamia Bisevo", "city": "Rožaje", "village": "Bisevo", "address": "Fshati, Bisevo Rožaje", "lat": 42.910431, "lng": 20.214246 },
  { "id": "022", "name": "Xhamia e Bojkës", "city": "Ulcinj", "village": "Bojkës", "address": "Fshati, Bojkës Ulcinj", "lat": 42.037664, "lng": 19.283892 },
  { "id": "023", "name": "Xhamia e Brajshës", "city": "Ulcinj", "village": "Brajshë", "address": "Fshati, Ulqin Brajshë Ulcinj", "lat": 42.021480, "lng": 19.314770 },
  { "id": "024", "name": "Xhamia Cernc", "city": "Rožaje", "village": "Cernc", "address": "Fshati, Cernc Rožaje", "lat": 42.917626, "lng": 20.309783 },
  { "id": "025", "name": "Xhamia e Daçajve", "city": "Rožaje", "village": "Daçaj", "address": "P8, Daçaj Rožaje", "lat": 42.809341, "lng": 20.177054 },
  { "id": "026", "name": "Xhamia e Bejler Beut", "city": "Podgorica", "village": "Draç, Podgoricë", "address": "Slobodana Škerovića, Draç, Podgoricë Podgorica", "lat": 42.435832, "lng": 19.267837 },
  { "id": "027", "name": "Xhamia Draginjë", "city": "Ulcinj", "village": "Draginjë", "address": "Fshati, Draginjë Ulcinj", "lat": 42.012896, "lng": 19.350248 },
  { "id": "028", "name": "Masjid Herceg Novi", "city": "Herceg Novi", "village": "Kumbor", "address": "Kumbor, Herceg Novi", "lat": 42.438870, "lng": 18.589855 },
  { "id": "029", "name": "Xhamia Jabllanice", "city": "Rožaje", "village": "Jabllanice", "address": "Fshati, Jabllanice Rožaje", "lat": 42.894765, "lng": 20.333137 },
  { "id": "030", "name": "Xhamia Kacarim", "city": "Rožaje", "village": "Kacarim", "address": "Fshati, Kacarim Rožaje", "lat": 42.941319, "lng": 20.188498 },
  { "id": "031", "name": "Xhamia \"Mufti Murat ef. Vodopic\"", "city": "Podgorica", "village": "Karabushko Polje", "address": "Fshati, Karabushko Polje Podgorica", "lat": 42.392257, "lng": 19.299967 },
  { "id": "032", "name": "Xhamia Katërkollë", "city": "Ulcinj", "village": "Katërkollë", "address": "Fshati, Katërkollë Ulcinj", "lat": 42.004637, "lng": 19.309986 },
  { "id": "033", "name": "Xhamia Këlleznës", "city": "Ulcinj", "village": "Këllezën", "address": "Fshati, Këllezën Ulcinj", "lat": 41.995926, "lng": 19.266651 },
  { "id": "034", "name": "Xhamia e Kollomzës", "city": "Ulcinj", "village": "Kollomëzë", "address": "Fshati, Kollomëzë Ulcinj", "lat": 41.942296, "lng": 19.243740 },
  { "id": "035", "name": "Xhamia e Kravarit Epërme", "city": "Ulcinj", "village": "Kravar", "address": "Fshati, Kravar Ulcinj", "lat": 42.051630, "lng": 19.350996 },
  { "id": "036", "name": "Xhamia e Kravarit të Poshtëm", "city": "Ulcinj", "village": "Kravarit", "address": "Fshati, Kravarit Ulcinj", "lat": 42.030211, "lng": 19.364682 },
  { "id": "037", "name": "Xhamia Krruç", "city": "Ulcinj", "village": "Krruç", "address": "Fshati, Krruç Ulcinj", "lat": 41.980987, "lng": 19.171818 },
  { "id": "038", "name": "Xhamia e vjetër e Krythës", "city": "Ulcinj", "village": "Krythë", "address": "Fshati, Krythë Ulcinj", "lat": 42.019632, "lng": 19.249128 },
  { "id": "039", "name": "Xhamia e Krythës", "city": "Ulcinj", "village": "Krythë", "address": "Fshati, Krythë Ulcinj", "lat": 42.014389, "lng": 19.249312 },
  { "id": "040", "name": "Xhamia Lakovice e Eperme", "city": "Rožaje", "village": "Lakovice e Eperme", "address": "Fshati, Lakovice e Eperme Rožaje", "lat": 42.894109, "lng": 20.113463 },
  { "id": "041", "name": "Xhamia Leskovaç", "city": "Ulcinj", "village": "Leskovaç", "address": "Fshati, Leskovaç Ulcinj", "lat": 42.034230, "lng": 19.219676 },
  { "id": "042", "name": "Xhamia Semir Muric Lovnice", "city": "Rožaje", "village": "Lovnice", "address": "Fshati, Lovnice Rožaje", "lat": 42.872405, "lng": 20.133473 },
  { "id": "043", "name": "Xhamia Malindubrava", "city": "Rožaje", "village": "Malindubrava", "address": "Fshati, Malindubrava Rožaje", "lat": 42.913583, "lng": 20.289835 },
  { "id": "044", "name": "Xhamia Mide", "city": "Ulcinj", "village": "Mide", "address": "Fshati, Mide Ulcinj", "lat": 42.032663, "lng": 19.264734 },
  { "id": "045", "name": "Xhamia Paucin", "city": "Rožaje", "village": "Paucin", "address": "Fshati, Paucin Rožaje", "lat": 42.931183, "lng": 20.156665 },
  { "id": "046", "name": "Xhamia e Pistullit", "city": "Ulcinj", "village": "Pistull", "address": "Fshati, Pistull Ulcinj", "lat": 41.949335, "lng": 19.256416 },
  { "id": "047", "name": "Xhamia Plluncaj", "city": "Rožaje", "village": "Plluncaj", "address": "Fshati, Plluncaj Rožaje", "lat": 42.841182, "lng": 20.196480 },
  { "id": "048", "name": "Xhamia \"Osman Aga\"", "city": "Podgorica", "village": "Podgoricë", "address": "Petra Prlje, Podgoricë Podgorica", "lat": 42.434941, "lng": 19.257517 },
  { "id": "049", "name": "Xhamia \"Skender Caushi\"", "city": "Podgorica", "village": "Podgoricë", "address": "Špira Mugoše, Podgoricë Podgorica", "lat": 42.437693, "lng": 19.259097 },
  { "id": "050", "name": "Xhamia Rastisha e Poshtëme", "city": "Ulcinj", "village": "Rastishë", "address": "Fshati, Rastishë Ulcinj", "lat": 42.030463, "lng": 19.342204 },
  { "id": "051", "name": "Xhamia Rastishë e Epërme", "city": "Ulcinj", "village": "Rastishë", "address": "Fshati, Rastishë Ulcinj", "lat": 42.047508, "lng": 19.326571 },
  { "id": "052", "name": "Xhamia Sultan Murat II", "city": "Rožaje", "village": "Rrozhajë", "address": "Raduna Đukića, Rrozhajë Rožaje", "lat": 42.844526, "lng": 20.166838 },
  { "id": "053", "name": "Xhamia e Kuçanskës", "city": "Rožaje", "village": "Rrozhajë", "address": "Mustafe Pecanina, Rrozhajë Rožaje", "lat": 42.844849, "lng": 20.169729 },
  { "id": "054", "name": "Xhamia Almin Muric", "city": "Rožaje", "village": "Rrozhajë", "address": "Rifata Burdževića, Rrozhajë Rožaje", "lat": 42.839527, "lng": 20.169975 },
  { "id": "055", "name": "Xhamia \"Hadzi Sadrija-Sako Dacic\"", "city": "Rožaje", "village": "Rrozhajë", "address": "Fshati, Rrozhajë Rožaje", "lat": 42.842746, "lng": 20.179596 },
  { "id": "056", "name": "Xhamia Suho Polje", "city": "Rožaje", "village": "Rrozhajë", "address": "Fshati, Rrozhajë Rožaje", "lat": 42.835437, "lng": 20.151588 },
  { "id": "057", "name": "Xhamia Ibarcu", "city": "Rožaje", "village": "Rrozhajë", "address": "Fshati, Rrozhajë Rožaje", "lat": 42.835945, "lng": 20.161852 },
  { "id": "058", "name": "Xhamia e Selitës", "city": "Ulcinj", "village": "Selitë", "address": "Fshati, Selitë Ulcinj", "lat": 42.004270, "lng": 19.327801 },
  { "id": "059", "name": "Xhamia e Shasit", "city": "Ulcinj", "village": "Shas", "address": "Fshati, Shas Ulcinj", "lat": 41.990885, "lng": 19.324685 },
  { "id": "060", "name": "Xhamia Shtegvashë", "city": "Ulcinj", "village": "Shtegvashë", "address": "Fshati, Shtegvashë Ulcinj", "lat": 42.058139, "lng": 19.365203 },
  { "id": "061", "name": "Xhamia \"Shtepia e Rakiqeve\"", "city": "Podgorica", "village": "Shtepia e Rakiqeve", "address": "Fshati, Shtepia e Rakiqeve Podgorica", "lat": 42.394539, "lng": 19.278158 },
  { "id": "062", "name": "Mesxhid \"Divan\"", "city": "Podgorica", "village": "Starom Aerodromu, Podgoricë", "address": "Bulevar Pera Ćetkovića, Starom Aerodromu, Podgoricë Podgorica", "lat": 42.434687, "lng": 19.281752 },
  { "id": "063", "name": "Xhamia Sukobinë", "city": "Ulcinj", "village": "Sukobinë", "address": "Fshati, Sukobinë Ulcinj", "lat": 42.015077, "lng": 19.357868 },
  { "id": "064", "name": "Xhamia e Marinarëve", "city": "Ulcinj", "village": "Ulqin", "address": "Detarët e Ulqinit, Ulqin Ulcinj", "lat": 41.924368, "lng": 19.204476 },
  { "id": "065", "name": "Xhamia Pinjesh", "city": "Ulcinj", "village": "Ulqin", "address": "Rruga e Kosovës, Ulqin Ulcinj", "lat": 41.925635, "lng": 19.213341 },
  { "id": "066", "name": "Xhamia e Pashës", "city": "Ulcinj", "village": "Ulqin", "address": "Buda Tomovića, Ulqin Ulcinj", "lat": 41.925852, "lng": 19.203785 },
  { "id": "067", "name": "Xhamia e Namazgjahut", "city": "Ulcinj", "village": "Ulqin", "address": "Rr. Hafiz Ali Ulqinaku, Ulqin Ulcinj", "lat": 41.929753, "lng": 19.207562 },
  { "id": "068", "name": "Xhamia Krypazarit", "city": "Ulcinj", "village": "Ulqin", "address": "Sheshi i Ullirit, Ulqin Ulcinj", "lat": 41.931364, "lng": 19.206724 },
  { "id": "069", "name": "Xhamia e Bregut", "city": "Ulcinj", "village": "Ulqin", "address": "Rr. Mehmet Gjyli, Ulqin Ulcinj", "lat": 41.930761, "lng": 19.211569 },
  { "id": "070", "name": "Xhamia e Lamit", "city": "Ulcinj", "village": "Ulqin", "address": "Narodnog Fronta, Ulqin Ulcinj", "lat": 41.930733, "lng": 19.209179 },
  { "id": "071", "name": "Islamsko-Edukativni Centar \"Ikre\"", "city": "Podgorica", "village": "Vrela Ribnička, Podgoricë", "address": "Vrela 4, br.12, Vrela Ribnička, Podgoricë Podgorica", "lat": 42.426387, "lng": 19.296821 },
  { "id": "072", "name": "Xhamia Zoganj", "city": "Ulcinj", "village": "Zoganj", "address": "Fshati, Zoganj Ulcinj", "lat": 41.945783, "lng": 19.284552 }
]